{"type":"FeatureCollection","features":[
{"type":"Feature","properties":
{"name":"ATL"},"geometry":
{"type":"Point","coordinates":[-84.4277,33.6407]}},
{"type":"Feature","properties":
{"name":"AGS"},"geometry":
{"type":"Point","coordinates":[-81.9655,33.3709]}},
{"type":"Feature","properties":
{"name":"DNL"},"geometry":
{"type":"Point","coordinates":[-82.0354,33.4661]}},
{"type":"Feature","properties":
{"name":"AIK"},"geometry":
{"type":"Point","coordinates":[-81.6779,33.6495]}},
{"type":"Feature","properties":
{"name":"HQU"},"geometry":
{"type":"Point","coordinates":[-82.5169,33.5297]}},
{"type":"Feature","properties":
{"name":"CLT"},"geometry":
{"type":"Point","coordinates":[-80.9473,35.2144]}},
{"type":"Feature","properties":
{"name":"SAV"},"geometry":
{"type":"Point","coordinates":[-81.2019,32.1294]}},
{"type":"Feature","properties":
{"name":"GSP"},"geometry":
{"type":"Point","coordinates":[-82.2172,34.8959]}},
{"type":"Feature","properties":
{"name":"MEM"},"geometry":
{"type":"Point","coordinates":[-89.9792,35.0421]}},
{"type":"Feature","properties":
{"name":"BNA"},"geometry":
{"type":"Point","coordinates":[-86.6774,36.1263]}},
{"type":"Feature","properties":
{"name":"FTY"},"geometry":
{"type":"Point","coordinates":[-84.5221,33.7763]}},
{"type":"Feature","properties":
{"name":"PDK"},"geometry":
{"type":"Point","coordinates":[-84.3028,33.8750]}},
{"type":"Feature","properties":
{"name":"RYY"},"geometry":
{"type":"Point","coordinates":[-84.6012,34.0155]}},
{"type":"Feature","properties":
{"name":"LZU"},"geometry":
{"type":"Point","coordinates":[-83.9625,33.9755]}}]}
